{"cities": [{"city": "Amsterdam", "file": "amsterdam.sqlite.gz", "country": "Netherlands", "center_lat": 52.350633349999995, "center_lon": 4.87765005, "n_streets": 56814, "n_measured": 6280, "model_r2": 0.6238771522065566, "bbox": [4.70811, 52.2613458, 5.0841781, 52.4434407]}, {"city": "Barcelona", "file": "barcelona.sqlite.gz", "country": "Spain", "center_lat": 41.3899978, "center_lon": 2.1456616, "n_streets": 9559, "n_measured": 16, "model_r2": 0.6238771522065566, "bbox": [2.1114059, 41.3580653, 2.1927393, 41.4165568]}, {"city": "Berlin", "file": "berlin.sqlite.gz", "country": "Germany", "center_lat": 52.4939306, "center_lon": 13.3942916, "n_streets": 68613, "n_measured": 271, "model_r2": 0.6238771522065566, "bbox": [13.1270712, 52.3907598, 13.6248689, 52.5955853]}, {"city": "Birmingham", "file": "birmingham.sqlite.gz", "country": "United Kingdom", "center_lat": 52.4887318, "center_lon": -1.9029613, "n_streets": 106253, "n_measured": 967, "model_r2": 0.6238771522065566, "bbox": [-2.04202, 52.3717291, -1.7301727, 52.6157446]}, {"city": "Bordeaux", "file": "bordeaux.sqlite.gz", "country": "France", "center_lat": 44.84215155, "center_lon": -0.5984771, "n_streets": 55618, "n_measured": 1082, "model_r2": 0.6238771522065566, "bbox": [-0.7387737, 44.7541988, -0.4566218, 44.9349895]}, {"city": "Brno", "file": "brno.sqlite.gz", "country": "Czechia", "center_lat": 49.1956471, "center_lon": 16.5990364, "n_streets": 16052, "n_measured": 1627, "model_r2": 0.6238771522065566, "bbox": [16.445584, 49.0983484, 16.7321408, 49.2872766]}, {"city": "Cardiff", "file": "cardiff.sqlite.gz", "country": "United Kingdom", "center_lat": 51.5043515, "center_lon": -3.1892961, "n_streets": 27721, "n_measured": 227, "model_r2": 0.6238771522065566, "bbox": [-3.326978, 51.432007, -3.0681629, 51.5591949]}, {"city": "Copenhagen", "file": "copenhagen.sqlite.gz", "country": "Denmark", "center_lat": 55.6826436, "center_lon": 12.5101789, "n_streets": 15069, "n_measured": 72, "model_r2": 0.6238771522065566, "bbox": [12.4460718, 55.6427312, 12.5765838, 55.7153825]}, {"city": "Dublin", "file": "dublin.sqlite.gz", "country": "Ireland", "center_lat": 53.3512869, "center_lon": -6.27985325, "n_streets": 51434, "n_measured": 1523, "model_r2": 0.6238771522065566, "bbox": [-6.4135775, 53.2835725, -6.1132078, 53.4275917]}, {"city": "Edinburgh", "file": "edinburgh.sqlite.gz", "country": "United Kingdom", "center_lat": 55.9346904, "center_lon": -3.20967395, "n_streets": 39886, "n_measured": 311, "model_r2": 0.6238771522065566, "bbox": [-3.458543, 55.8613222, -3.0471885, 55.9932659]}, {"city": "Geneva", "file": "geneva.sqlite.gz", "country": "Switzerland", "center_lat": 46.206590649999995, "center_lon": 6.1280047500000006, "n_streets": 34050, "n_measured": 390, "model_r2": 0.6238771522065566, "bbox": [5.9517772, 46.1236958, 6.2735217, 46.3294533]}, {"city": "Glasgow", "file": "glasgow.sqlite.gz", "country": "United Kingdom", "center_lat": 55.8497204, "center_lon": -4.2549513999999995, "n_streets": 72108, "n_measured": 630, "model_r2": 0.6238771522065566, "bbox": [-4.4160513, 55.7771936, -4.0464981, 55.9212574]}, {"city": "Grenoble", "file": "grenoble.sqlite.gz", "country": "France", "center_lat": 45.1775057, "center_lon": 5.7242497, "n_streets": 12138, "n_measured": 168, "model_r2": 0.6238771522065566, "bbox": [5.6723182, 45.1392844, 5.772774, 45.2254695]}, {"city": "Hamburg", "file": "hamburg.sqlite.gz", "country": "Germany", "center_lat": 53.5781035, "center_lon": 9.9995045, "n_streets": 71931, "n_measured": 398, "model_r2": 0.6238771522065566, "bbox": [9.707613, 53.4019023, 10.252875, 53.6993943]}, {"city": "Helsinki", "file": "helsinki.sqlite.gz", "country": "Finland", "center_lat": 60.2300749, "center_lon": 24.9615119, "n_streets": 30896, "n_measured": 69, "model_r2": 0.6238771522065566, "bbox": [24.7966056, 60.1369663, 25.2886459, 60.2998991]}, {"city": "Lille", "file": "lille.sqlite.gz", "country": "France", "center_lat": 50.6608572, "center_lon": 3.0852760000000004, "n_streets": 97198, "n_measured": 1184, "model_r2": 0.6238771522065566, "bbox": [2.7704127, 50.4876179, 3.2818825, 50.8030343]}, {"city": "Lisbon", "file": "lisbon.sqlite.gz", "country": "Portugal", "center_lat": 38.7551113, "center_lon": -9.1482514, "n_streets": 21391, "n_measured": 13, "model_r2": 0.6238771522065566, "bbox": [-9.1905385, 38.6985957, -9.097456, 38.8024131]}, {"city": "Ljubljana", "file": "ljubljana.sqlite.gz", "country": "Slovenia", "center_lat": 46.086712399999996, "center_lon": 14.5243655, "n_streets": 34600, "n_measured": 266, "model_r2": 0.6238771522065566, "bbox": [14.3364464, 45.9356139, 14.6890664, 46.2288216]}, {"city": "London", "file": "london.sqlite.gz", "country": "United Kingdom", "center_lat": 51.4990644, "center_lon": -0.121717, "n_streets": 389512, "n_measured": 8056, "model_r2": 0.6238771522065566, "bbox": [-0.5345227, 51.2806224, 0.3241577, 51.7027809]}, {"city": "Luxembourg", "file": "luxembourg.sqlite.gz", "country": "Luxembourg", "center_lat": 49.6043012, "center_lon": 6.0925942, "n_streets": 51971, "n_measured": 447, "model_r2": 0.6238771522065566, "bbox": [5.8156402, 49.4364515, 6.4113683, 49.8681018]}, {"city": "Lyon", "file": "lyon.sqlite.gz", "country": "France", "center_lat": 45.7437577, "center_lon": 4.8470765, "n_streets": 82062, "n_measured": 3433, "model_r2": 0.6238771522065566, "bbox": [4.680201, 45.5694258, 5.031029, 45.9169843]}, {"city": "Madrid", "file": "madrid.sqlite.gz", "country": "Spain", "center_lat": 40.4172373, "center_lon": -3.6956645, "n_streets": 81275, "n_measured": 9588, "model_r2": 0.6238771522065566, "bbox": [-3.8611195, 40.3143907, -3.5567535, 40.5337063]}, {"city": "Malmo", "file": "malmo.sqlite.gz", "country": "Sweden", "center_lat": 55.582378, "center_lon": 13.009895199999999, "n_streets": 18568, "n_measured": 902, "model_r2": 0.6238771522065566, "bbox": [12.8946139, 55.4935689, 13.1787227, 55.6519447]}, {"city": "Manchester", "file": "manchester.sqlite.gz", "country": "United Kingdom", "center_lat": 53.4642228, "center_lon": -2.2191076, "n_streets": 88852, "n_measured": 878, "model_r2": 0.6238771522065566, "bbox": [-2.3328838, 53.3408872, -2.121681, 53.5590454]}, {"city": "Marseille", "file": "marseille.sqlite.gz", "country": "France", "center_lat": 43.3131999, "center_lon": 5.40215205, "n_streets": 35824, "n_measured": 10482, "model_r2": 0.6238771522065566, "bbox": [5.2864948, 43.2092252, 5.5549483, 43.4221341]}, {"city": "Milan", "file": "milan.sqlite.gz", "country": "Italy", "center_lat": 45.4681758, "center_lon": 9.187395, "n_streets": 12571, "n_measured": 55, "model_r2": 0.6238771522065566, "bbox": [9.1396785, 45.4343764, 9.2320575, 45.498597]}, {"city": "Montpellier", "file": "montpellier.sqlite.gz", "country": "France", "center_lat": 43.6209009, "center_lon": 3.8759453, "n_streets": 57394, "n_measured": 753, "model_r2": 0.6238771522065566, "bbox": [3.6820737, 43.4881509, 4.0788928, 43.7664786]}, {"city": "Oslo", "file": "oslo.sqlite.gz", "country": "Norway", "center_lat": 59.896542100000005, "center_lon": 10.730782, "n_streets": 113932, "n_measured": 1323, "model_r2": 0.6238771522065566, "bbox": [9.9733611, 59.48823, 11.3490265, 60.275949]}, {"city": "Paris", "file": "paris.sqlite.gz", "country": "France", "center_lat": 48.86055515, "center_lon": 2.3258475499999998, "n_streets": 46958, "n_measured": 2688, "model_r2": 0.6238771522065566, "bbox": [2.2121764, 48.7947138, 2.4521055, 48.9217975]}, {"city": "Rennes", "file": "rennes.sqlite.gz", "country": "France", "center_lat": 48.1085237, "center_lon": -1.6866793, "n_streets": 68541, "n_measured": 1264, "model_r2": 0.6238771522065566, "bbox": [-1.9283618, 47.9394949, -1.4842325, 48.2848523]}, {"city": "Riga", "file": "riga.sqlite.gz", "country": "Latvia", "center_lat": 56.941943699999996, "center_lon": 24.1597699, "n_streets": 45162, "n_measured": 13, "model_r2": 0.6238771522065566, "bbox": [23.8701804, 56.797519, 24.4393262, 57.1055679]}, {"city": "Rouen", "file": "rouen.sqlite.gz", "country": "France", "center_lat": 49.4163763, "center_lon": 1.060514, "n_streets": 51839, "n_measured": 156, "model_r2": 0.6238771522065566, "bbox": [0.7714442, 49.2572359, 1.1894677, 49.5523839]}, {"city": "Stockholm", "file": "stockholm.sqlite.gz", "country": "Sweden", "center_lat": 59.3340744, "center_lon": 18.0006718, "n_streets": 67907, "n_measured": 1489, "model_r2": 0.6238771522065566, "bbox": [17.7644311, 59.21449, 18.2304635, 59.447805]}, {"city": "Tallinn", "file": "tallinn.sqlite.gz", "country": "Estonia", "center_lat": 59.4168472, "center_lon": 24.7492615, "n_streets": 32423, "n_measured": 34, "model_r2": 0.6238771522065566, "bbox": [24.480983, 59.2661452, 25.0797395, 59.529061]}, {"city": "Toulouse", "file": "toulouse.sqlite.gz", "country": "France", "center_lat": 43.6015596, "center_lon": 1.4248907, "n_streets": 76258, "n_measured": 1385, "model_r2": 0.6238771522065566, "bbox": [1.2380097, 43.5046422, 1.6374918, 43.7278732]}, {"city": "Tours", "file": "tours.sqlite.gz", "country": "France", "center_lat": 47.3395152, "center_lon": 0.689187, "n_streets": 126825, "n_measured": 615, "model_r2": 0.6238771522065566, "bbox": [0.0744647, 46.8276057, 1.3204778, 47.6566222]}, {"city": "Valencia", "file": "valencia.sqlite.gz", "country": "Spain", "center_lat": 39.468984649999996, "center_lon": -0.3863012, "n_streets": 21828, "n_measured": 53, "model_r2": 0.6238771522065566, "bbox": [-0.4409791, 39.4209871, -0.3132675, 39.5184343]}, {"city": "Vienna", "file": "vienna.sqlite.gz", "country": "Austria", "center_lat": 48.2081818, "center_lon": 16.3655152, "n_streets": 46803, "n_measured": 169, "model_r2": 0.6238771522065566, "bbox": [16.2008642, 48.1088773, 16.56756, 48.3192947]}, {"city": "Zurich", "file": "zurich.sqlite.gz", "country": "Switzerland", "center_lat": 47.3821889, "center_lon": 8.54125425, "n_streets": 18180, "n_measured": 280, "model_r2": 0.6238771522065566, "bbox": [8.4455139, 47.3144721, 8.6250321, 47.4455508]}]}